[
    {
        "id": 1,
        "nombre": "Show Nicki Nicole - Estadio Monumental",
        "direccion": "",
        "coordenadas": {
            "latitud": -34.5456,
            "longitud": -58.4492
        }
    },
    {
        "id": 2,
        "nombre": "Show Duki - Movistar Arena",
        "direccion": "",
        "coordenadas": {
            "latitud": -34.5774,
            "longitud": -58.4086
        }
    },
    {
        "id": 3,
        "nombre": "Show Vanilla Ice - Luna Park",
        "direccion": "",
        "coordenadas": {
            "latitud": -34.6037,
            "longitud": -58.3816
        }
    },
    {
        "id": 4,
        "nombre": "Show Peso Pluma - Estadio Velez Sarfield",
        "direccion": "",
        "coordenadas": {
            "latitud": -34.6182,
            "longitud": -58.3716
        }
    },
    {
        "id": 5,
        "nombre": "Show Maria Becerra - Estadio Unico",
        "direccion": "",
        "coordenadas": {
            "latitud": -34.5731,
            "longitud": -58.4171
        }
    }
]
